gid,co_cnes,lat,long,no_fantasia,no_logradouro,nu_endereco,no_bairro,nu_telefone,co_cep,uf,cidade,ano_ubs_det,mes_ubs_det
"27","2105462","-15.3429340536125","-43.6703288759638","UAPS NOVA ESPERANCA","AV JOAO TEIXEIRA FILHO","566","CENTRO","(38)38331252","39508000","MG","Jaíba","2016","5"
"331","2576368","-23.5984611511224","-51.632051467894","UBS LAZARO DE PAULA RODRIGUES","RUA MARUMBI","S/N","CENTRO","(43)34327398","86900000","PR","Jandaia do Sul","2016","5"
"273","2478234","-3.49968194961538","-40.2771234512317","CENTRO DE SAUDE DA FAMILIA DO MIRIM ANTONIO BISPO FILHO","ALTO ALEGRE","S/N","ALTO ALEGRE","8836431065","62140000","CE","Massapê","2016","5"
"46","2412802","-13.2777392864223","-41.3851547241199","US DA FAMILIA DE IRACEMA COSTA E SILVA","TRAVESSA ITAMAR MAGALHAES","25","CENTRO","77 34135203","46760000","BA","Ibicoara","2016","5"
"330","2756161","-7.115","-34.863","USF INTEGRADA SANTA CLARA","RUA NEVINHA RAPOSO","53","CASTELO BRANCO","(83)32147126","58050520","PB","João Pessoa","2016","5"

